Ags,Rkiname,Inzidenz,delta_1,delta_1_p,Lat,Long
01001,SK Flensburg,74.1,0.1,0.2,54.785119,9.4323687
01002,SK Kiel,66.5,0.3,0.6,54.329759,10.130283
01003,SK Lübeck,51.6,1,1.9,53.875705,10.723051
01004,SK Neumünster,73.2,1.5,3,54.088042,9.9835962
01051,LK Dithmarschen,42.1,0.7,2,54.133993,9.1096773
01053,LK Herzogtum Lauenburg,88.1,1,1.3,53.596434,10.608184
01054,LK Nordfriesland,32,0.6,2.1,54.611088,9.0649543
01055,LK Ostholstein,50.2,0.3,0.7,54.211782,10.86662
01056,LK Pinneberg,79.8,1.3,1.8,53.723182,9.7371433
01057,LK Plön,30.3,0.1,0.4,54.245729,10.363199
01058,LK Rendsburg-Eckernförde,43.6,0.1,0.3,54.29215,9.7793856
01059,LK Schleswig-Flensburg,40.6,0.1,0.3,54.616026,9.5509886
01060,LK Segeberg,82.5,1.5,2,53.926779,10.142052
01061,LK Steinburg,62.1,0.3,0.8,53.930387,9.5111518
01062,LK Stormarn,80.2,0.9,1.1,53.728387,10.336683
02000,SK Hamburg,101,16.8,17,53.553616,10.027361
03101,SK Braunschweig,84.6,2.1,2.6,52.280839,10.526347
03102,SK Salzgitter,197,32.4,17.7,52.129678,10.370679
03103,SK Wolfsburg,112.2,15.3,15.5,52.411138,10.785036
03151,LK Gifhorn,100.8,4.4,5,52.586249,10.607222
03153,LK Goslar,53,1.7,3.8,51.876084,10.401684
03154,LK Helmstedt,73.7,1.6,2.1,52.260419,10.894027
03155,LK Northeim,54.2,4.6,9.5,51.74463,9.8518887
03157,LK Peine,136,12.3,11,52.308055,10.256622
03158,LK Wolfenbüttel,80.7,1.6,1.6,52.137751,10.648905
03159,LK Göttingen,60.5,1.6,2.8,51.500939,9.9321137
03241,Region Hannover,118.4,8.8,7.7,52.424603,9.720613
03251,LK Diepholz,74.7,11.9,17.8,52.730353,8.7019864
03252,LK Hameln-Pyrmont,77.7,9.2,12.3,52.094196,9.3932046
03254,LK Hildesheim,77.9,4.8,6.5,52.091993,9.9453013
03255,LK Holzminden,69.6,2.3,3.7,51.881129,9.5553908
03256,LK Nienburg (Weser),72.6,0.6,0.7,52.611395,9.113799
03257,LK Schaumburg,99,5.6,7,52.292013,9.2066986
03351,LK Celle,94.4,6.5,8.2,52.719791,10.10555
03352,LK Cuxhaven,70.7,3.9,6.4,53.618225,8.8035629
03353,LK Harburg,78,0.5,0.8,53.325053,9.9641457
03354,LK Lüchow-Dannenberg,53.3,2,4.8,53.017929,11.129626
03355,LK Lüneburg,61.1,5.6,9.6,53.240413,10.577257
03356,LK Osterholz,60.6,4.3,7.6,53.255484,8.8106144
03357,LK Rotenburg (Wümme),66.5,7.3,12.8,53.25506,9.3050983
03358,LK Heidekreis,62.7,7.3,12.7,52.934247,9.7706982
03359,LK Stade,76,10.1,15.2,53.59498,9.4166249
03360,LK Uelzen,71,3.2,4.8,52.993539,10.549805
03361,LK Verden,75.7,2.8,4,52.976043,9.173881
03401,SK Delmenhorst,126.2,2.5,2.1,53.046392,8.6438715
03402,SK Emden,81.8,10.4,15.4,53.350019,7.241668
03403,SK Oldenburg,80.4,6.3,8.5,53.144113,8.2360934
03404,SK Osnabrück,125.2,19.3,15.9,52.279483,8.046646
03405,SK Wilhelmshaven,53.1,10.6,23,53.566003,8.0892718
03451,LK Ammerland,88,1.2,1.6,53.212532,8.0321495
03452,LK Aurich,53.4,5.1,10.5,53.481904,7.3903033
03453,LK Cloppenburg,164.3,14,9.8,52.905073,7.9209102
03454,LK Emsland,116.6,14.9,13.2,52.730863,7.4190007
03455,LK Friesland,43.8,2.7,8.4,53.39451,8.0467827
03456,LK Grafschaft Bentheim,111.7,0.6,0.8,52.47913,7.0249016
03457,LK Leer,110.2,10.1,9.8,53.217026,7.5350353
03458,LK Oldenburg,91,7.7,9.5,52.992398,8.408599
03459,LK Osnabrück,88.7,13.5,16.1,52.505597,7.8413453
03460,LK Vechta,189.1,0.7,0.6,52.663086,8.2271335
03461,LK Wesermarsch,108.9,13.8,14.3,53.357849,8.3931147
03462,LK Wittmund,50.4,7.3,16.2,53.594498,7.7199505
04011,SK Bremen,109.7,0.8,0.7,53.11115,8.7890014
04012,SK Bremerhaven,148.1,13.2,9.8,53.535877,8.5847177
05111,SK Düsseldorf,101.5,1.9,1.9,51.232947,6.8174691
05112,SK Duisburg,155.4,4.8,2.8,51.439338,6.7426703
05113,SK Essen,115,0.7,0.6,51.429552,7.0247831
05114,SK Krefeld,151.9,4.5,2.7,51.344702,6.5885164
05116,SK Mönchengladbach,97.6,7.4,8,51.170067,6.4214464
05117,SK Mülheim a.d.Ruhr,130.8,4.7,4.1,51.410975,6.8861611
05119,SK Oberhausen,120.9,12.2,10.6,51.509803,6.8562311
05120,SK Remscheid,197.1,2,1.1,51.179955,7.2230811
05122,SK Solingen,154.5,1.3,1,51.158614,7.0692269
05124,SK Wuppertal,166.1,2.9,1.9,51.247065,7.1677703
05154,LK Kleve,114.6,5.2,4.5,51.654129,6.2676332
05158,LK Mettmann,140.6,1.8,1.7,51.293695,7.0111103
05162,LK Rhein-Kreis Neuss,101.6,5.7,5.6,51.141915,6.6543443
05166,LK Viersen,98.3,1.8,2.3,51.286061,6.3305124
05170,LK Wesel,100,7.6,8.1,51.627207,6.626953
05314,SK Bonn,119.9,0.6,0.5,50.699837,7.1159508
05315,SK Köln,140.6,4.6,3.1,50.941508,6.9777146
05316,SK Leverkusen,145.2,0.7,0.6,51.048871,7.0177991
05334,StadtRegion Aachen,111.8,8.1,7.8,50.756428,6.1032996
05358,LK Düren,148.4,0.9,0.6,50.817006,6.4476606
05362,LK Rhein-Erft-Kreis,137.9,0.4,0.2,50.901271,6.7226709
05366,LK Euskirchen,110.5,7.4,7.6,50.529011,6.6453886
05370,LK Heinsberg,95.1,1.8,1.9,51.052035,6.1709684
05374,LK Oberbergischer Kreis,172.4,11.6,7.2,51.010967,7.5172785
05378,LK Rheinisch-Bergischer Kreis,103.2,5.3,4.6,51.019601,7.1958983
05382,LK Rhein-Sieg-Kreis,90.4,7.8,8.8,50.755877,7.2402531
05512,SK Bottrop,90.5,4.7,4.7,51.594362,6.9159912
05513,SK Gelsenkirchen,158.6,6.3,4.1,51.549491,7.0817139
05515,SK Münster,68.9,5.5,8.2,51.952438,7.6264618
05554,LK Borken,115.2,0.3,0.3,51.962198,6.9097557
05558,LK Coesfeld,67.3,0.8,1.4,51.864443,7.3713157
05562,LK Recklinghausen,124.8,1.5,1,51.669264,7.165792
05566,LK Steinfurt,107.8,11.7,11.5,52.2116,7.581675
05570,LK Warendorf,99.3,0.1,0.1,51.86986,7.9598364
05711,SK Bielefeld,113.8,13.8,12.2,52.011184,8.543212
05754,LK Gütersloh,124.9,9.1,7.5,51.931784,8.3548388
05758,LK Herford,124,5.8,4.6,52.168789,8.6427584
05762,LK Höxter,60.2,1.6,3,51.685478,9.1884029
05766,LK Lippe,137.5,0.5,0.5,51.981325,8.9548684
05770,LK Minden-Lübbecke,131.3,0.7,0.5,52.352474,8.740944
05774,LK Paderborn,85.8,6.6,7.7,51.662547000000004,8.7303579
05911,SK Bochum,116.3,1.8,1.4,51.465371,7.2285467
05913,SK Dortmund,132.3,1.5,1.4,51.512061,7.4796919
05914,SK Hagen,191.3,3.5,1.8,51.347057,7.4970114
05915,SK Hamm,152.2,6.4,4.4,51.66249,7.8263982
05916,SK Herne,172.8,3.4,2.4,51.533785,7.2159088
05954,LK Ennepe-Ruhr-Kreis,108.7,7.6,7.5,51.34186,7.3263007
05958,LK Hochsauerlandkreis,117.7,0.2,0.3,51.305556,8.3972543
05962,LK Märkischer Kreis,187.7,0.6,0.3,51.260696,7.7139345
05966,LK Olpe,122.1,0.2,0.1,51.087234,7.9812283
05970,LK Siegen-Wittgenstein,147.7,4.3,3,50.937992,8.2058809
05974,LK Soest,80.5,5.7,7.3,51.5647,8.2236358
05978,LK Unna,128.4,1.4,1.8,51.575208,7.6417082
06411,SK Darmstadt,85.8,1.3,1.7,49.882743,8.6752367
06412,SK Frankfurt am Main,132.4,3.4,2.8,50.116773,8.6598981
06413,SK Offenbach,216.9,11.5,5.3,50.089561,8.7984841
06414,SK Wiesbaden,110.2,2.5,2.4,50.076486,8.2738994
06431,LK Bergstraße,106.2,3.2,3.5,49.669855,8.6318551
06432,LK Darmstadt-Dieburg,97,1,1.1,49.855994,8.8061081
06433,LK Groß-Gerau,136.3,2.9,2.1,49.902901,8.4812779
06434,LK Hochtaunuskreis,105.6,1.2,1.2,50.27895,8.5206755
06435,LK Main-Kinzig-Kreis,140.5,4.5,3.2,50.243344,9.2931037
06436,LK Main-Taunus-Kreis,102.5,1.5,1.6,50.097876,8.4478967
06437,LK Odenwaldkreis,106.6,0.1,0,49.675058,8.988983
06438,LK Offenbach,128.6,3.2,2.6,50.022103,8.8260025
06439,LK Rheingau-Taunus-Kreis,91.8,0.9,1.2,50.139484,8.0949772
06440,LK Wetteraukreis,97,6.3,6.7,50.352779,8.9212263
06531,LK Gießen,140,13.7,11.8,50.566243,8.8206054
06532,LK Lahn-Dill-Kreis,166,9.6,5.9,50.648039,8.3791535
06533,LK Limburg-Weilburg,161.8,6.3,4.2,50.427262,8.2174087
06534,LK Marburg-Biedenkopf,135.7,3,2.6,50.83295,8.7522191
06535,LK Vogelsbergkreis,118.4,0.1,0.2,50.638109,9.2796685
06611,SK Kassel,128.5,0.4,0.5,51.313095,9.4655528
06631,LK Fulda,186.5,8.7,4.6,50.564394,9.7600374
06632,LK Hersfeld-Rotenburg,194.8,3.7,2.4,50.909447,9.755943
06633,LK Kassel,97.6,0.2,0.5,51.482179,9.4568303
06634,LK Schwalm-Eder-Kreis,84.8,3,3.4,51.023792,9.3816677
06635,LK Waldeck-Frankenberg,94,1.7,2.2,51.188851,8.9051729
06636,LK Werra-Meißner-Kreis,107.7,1.1,1,51.192965,9.9315409
07111,SK Koblenz,95.5,8.9,9.9,50.34527,7.5872981
07131,LK Ahrweiler,92.1,1.5,1.8,50.461821,7.0515366
07132,LK Altenkirchen,140.3,14.5,10.9,50.751529,7.7516687
07133,LK Bad Kreuznach,86.1,0.6,0.6,49.825742,7.6943427
07134,LK Birkenfeld,103.2,4,4.5,49.717299,7.2890031
07135,LK Cochem-Zell,47.5,4.2,10.7,50.131267,7.1864285
07137,LK Mayen-Koblenz,104.8,8.4,8.4,50.32879,7.3401513
07138,LK Neuwied,137.7,4.5,3.4,50.555697,7.4755532
07140,LK Rhein-Hunsrück-Kreis,87.4,9,11,50.045793,7.5144261
07141,LK Rhein-Lahn-Kreis,87,7,8.8,50.263929,7.8582581
07143,LK Westerwaldkreis,105.3,9.3,9.1,50.551418,7.8785675
07211,SK Trier,58,5.5,10.5,49.763893,6.6508604
07231,LK Bernkastel-Wittlich,64.4,1.9,3.2,49.925053,6.9707499
07232,LK Bitburg-Prüm,76.4,5.2,7.9,50.062123,6.4072307
07233,LK Vulkaneifel,79.9,0.2,0.5,50.232909,6.7528997
07235,LK Trier-Saarburg,63.6,6.5,11,49.685867,6.83965
07311,SK Frankenthal,105.9,6.1,5.9,49.533715,8.3608617
07312,SK Kaiserslautern,83,5,6.1,49.434653,7.768566
07313,SK Landau i.d.Pfalz,76.6,8.8,13.4,49.197801,8.1146145
07314,SK Ludwigshafen,156.7,8.4,5.3,49.482783,8.4034095
07315,SK Mainz,112.8,6.5,5.9,49.971827,8.2525017
07316,SK Neustadt a.d.Weinstraße,61.4,5.5,9.2,49.343502,8.151743
07317,SK Pirmasens,113,3.8,4,49.19548,7.5914822
07318,SK Speyer,131.2,6,5,49.33493,8.4349693
07319,SK Worms,143.7,11.4,8.2,49.649206,8.3292565
07320,SK Zweibrücken,70.6,2.7,4.3,49.25695,7.3706429
07331,LK Alzey-Worms,98.6,7.7,8.4,49.756662,8.163596
07332,LK Bad Dürkheim,74.5,6.3,8.9,49.453295,8.1148562
07333,LK Donnersbergkreis,99.8,5.2,5,49.629734,7.9227696
07334,LK Germersheim,133,5.7,4.5,49.118287,8.2496793
07335,LK Kaiserslautern,78.1,4.1,5.2,49.419772,7.5305697
07336,LK Kusel,58.6,5.8,11.2,49.551705,7.4827308
07337,LK Südliche Weinstraße,80.2,8.3,11.9,49.118284,8.0029424
07338,LK Rhein-Pfalz-Kreis,102.6,5.8,5.6,49.418276,8.3627468
07339,LK Mainz-Bingen,80.9,4.5,5.6,49.917976,8.0895077
07340,LK Südwestpfalz,77.4,2.9,4.2,49.209205,7.6577925
08111,SK Stuttgart,133.4,3.2,2.5,48.776237,9.1728399
08115,LK Böblingen,97.8,6.6,7.2,48.67877,8.9426598
08116,LK Esslingen,140.8,5,3.6,48.648305,9.3692627
08117,LK Göppingen,153.6,9.4,6,48.664115,9.7216924
08118,LK Ludwigsburg,127,7.4,5.7,48.940047,9.1232145
08119,LK Rems-Murr-Kreis,129.6,4.5,4,48.897605,9.5033594
08121,SK Heilbronn,170.3,8,4.7,49.152943,9.1862714
08125,LK Heilbronn,148.8,4.6,3.3,49.251142,9.3064101
08126,LK Hohenlohekreis,194.1,5.2,2.7,49.267073,9.6237602
08127,LK Schwäbisch Hall,262,1.5,0.6,49.142524,9.9177417
08128,LK Main-Tauber-Kreis,116.7,3.3,3.3,49.558019,9.7317661
08135,LK Heidenheim,150.7,6.1,3.8,48.666696,10.18807
08136,LK Ostalbkreis,147.1,5.8,3.8,48.879565,10.099291
08211,SK Baden-Baden,118.8,1.9,1.8,48.748736,8.2360311
08212,SK Karlsruhe,107.9,3,2.9,49.015061,8.4138363
08215,LK Karlsruhe,118.8,3.3,2.8,48.909521,8.4076825
08216,LK Rastatt,156,2.2,1.4,48.882138,8.2248732
08221,SK Heidelberg,67.6,2,3,49.412503,8.6951968
08222,SK Mannheim,151.3,0.7,0.5,49.501151,8.5037233
08225,LK Neckar-Odenwald-Kreis,109.3,2.6,2.7,49.46632,9.2861412
08226,LK Rhein-Neckar-Kreis,107.3,2,1.8,49.30138,8.8351919
08231,SK Pforzheim,122,4.8,4.1,48.879669,8.7136825000000009
08235,LK Calw,120,4.4,3.7,48.678608,8.6359698
08236,LK Enzkreis,121,3.2,2.8,48.970536,8.8293892
08237,LK Freudenstadt,130.9,6,5.3,48.47664,8.4627154
08311,SK Freiburg i.Breisgau,67.7,4.7,7.5,47.995554,7.8181515
08315,LK Breisgau-Hochschwarzwald,67.3,4.8,7.6,47.927627,8.0907884
08316,LK Emmendingen,87.8,4.7,5.6,48.151376,7.9001308
08317,LK Ortenaukreis,109.9,8.7,7.9,48.423722,8.0146389
08325,LK Rottweil,128.4,7.5,7.3,48.259118,8.5273592
08326,LK Schwarzwald-Baar-Kreis,123.1,7.1,6.4,48.023167,8.4060389
08327,LK Tuttlingen,152.2,1.6,1.4,48.015076,8.7866082
08335,LK Konstanz,118.8,9.6,8.9,47.803101,8.9125795
08336,LK Lörrach,85.6,0.6,0.7,47.708577,7.7690697
08337,LK Waldshut,101,7.7,8.1,47.700909,8.2182879
08415,LK Reutlingen,121.2,8.7,7.3,48.407201,9.3681294
08416,LK Tübingen,108,3.6,3.3,48.482492,8.9878408
08417,LK Zollernalbkreis,137.9,1.2,0.6,48.268438,8.9325354
08421,SK Ulm,135,2.4,1.8,48.393934,9.9530146
08425,LK Alb-Donau-Kreis,129.5,2.2,1.7,48.294959,9.6984361
08426,LK Biberach,144.6,9.6,8,48.110471,9.7758573
08435,LK Bodenseekreis,103.5,2.9,2.7,47.736322,9.4051731
08436,LK Ravensburg,111.2,3.8,3.4,47.827299,9.780134
08437,LK Sigmaringen,148.8,8.9,6.3,48.042245,9.2369418
09161,SK Ingolstadt,108.8,5.9,6.9,48.751672,11.402123
09162,SK München,98.7,5.5,5.5,48.14924,11.550583
09163,SK Rosenheim,141.6,0.9,0.6,47.843242,12.113999
09171,LK Altötting,159.6,2.8,1.9,48.214904,12.710466
09172,LK Berchtesgadener Land,113.6,4.6,4.2,47.689,12.887468
09173,LK Bad Tölz-Wolfratshausen,90.8,5.2,6.1,47.724822,11.488162
09174,LK Dachau,130.7,6.3,5.5,48.330886,11.361832
09175,LK Ebersberg,90,1.5,1.6,48.072971,11.916733
09176,LK Eichstätt,106.4,0.6,1,48.894676,11.377377
09177,LK Erding,107.9,3.8,5.7,48.298097,12.003207
09178,LK Freising,128.8,1.9,1.8,48.445509,11.744176
09179,LK Fürstenfeldbruck,102.1,3.1,3.2,48.184625,11.20652
09180,LK Garmisch-Partenkirchen,90.6,7.4,9.7,47.556054,11.128266
09181,LK Landsberg a.Lech,75.2,2.9,3.8,48.024573,10.954265
09182,LK Miesbach,102.9,0.2,0.2,47.74006,11.815808
09183,LK Mühldorf a.Inn,183.8,0.7,0.4,48.241361,12.386674
09184,LK München,95.7,3.5,4.1,48.00965,11.655151
09185,LK Neuburg-Schrobenhausen,110.4,8.2,7.1,48.660193,11.202207
09186,LK Pfaffenhofen a.d.Ilm,123.2,2.5,2.4,48.593412,11.526963
09187,LK Rosenheim,102.9,0.4,0.4,47.946992,12.201827
09188,LK Starnberg,81.2,5.2,6.5,48.002201,11.287519
09189,LK Traunstein,170.2,2.7,1.7,47.89873,12.582843
09190,LK Weilheim-Schongau,98.8,6.7,7.4,47.787291,11.053654
09261,SK Landshut,147.4,3.1,2.7,48.543948,12.160501
09262,SK Passau,111.7,4.9,5.2,48.586691,13.415058
09263,SK Straubing,144.7,2.6,3.1,48.884215,12.574082
09271,LK Deggendorf,178.7,3.8,2.4,48.784508,13.005449
09272,LK Freyung-Grafenau,151.2,1,0.8,48.829498,13.515194
09273,LK Kelheim,170.9,12.5,6.9,48.823577,11.859606
09274,LK Landshut,155,2.1,1.6,48.660179,12.07862
09275,LK Passau,127.9,6.5,5.4,48.483276,13.260599
09276,LK Regen,143.5,2.2,1.5,49.02731,13.102578
09277,LK Rottal-Inn,149.6,1.4,1.3,48.431852,12.871481
09278,LK Straubing-Bogen,159.9,2.8,2.3,49.006714,12.696094
09279,LK Dingolfing-Landau,199.3,9.9,5,48.645574,12.614768
09361,SK Amberg,170.7,3.9,2.3,49.453399,11.849567
09362,SK Regensburg,145.5,3.2,3.2,49.013426,12.115815
09363,SK Weiden i.d.OPf.,130.1,5.2,4.3,49.668596,12.160877
09371,LK Amberg-Sulzbach,154.3,2.8,1.9,49.552624,11.731463
09372,LK Cham,227.5,3,1.4,49.24159,12.699762
09373,LK Neumarkt i.d.OPf.,121.6,14.8,14.3,49.215729,11.568611
09374,LK Neustadt a.d.Waldnaab,114,4.6,4.2,49.728007,11.892742
09375,LK Regensburg,138.4,3.4,3.5,49.094466,11.917086
09376,LK Schwandorf,184.8,11.7,6.4,49.36972,12.254654
09377,LK Tirschenreuth,133.2,3.2,2.2,49.900466,12.204166
09461,SK Bamberg,87.9,6,7.4,49.884114,10.904317
09462,SK Bayreuth,135.2,7,5.6,49.936515,11.58837
09463,SK Coburg,132.4,0.4,0.4,50.259816,10.964065
09464,SK Hof,339.1,3.2,1.1,50.315974,11.897202
09471,LK Bamberg,95.2,3.9,4.7,49.943897,11.112155
09472,LK Bayreuth,126.5,7.1,5.7,49.803643,11.487996
09473,LK Coburg,130.7,0.2,0.2,50.333655,10.880832
09474,LK Forchheim,97.8,5.8,6.1,49.721287,11.181625
09475,LK Hof,235.8,1.4,0.6,50.21569,11.789149
09476,LK Kronach,247,1.2,0.6,50.326531,11.37212
09477,LK Kulmbach,228.2,0.1,0.1,50.101067,11.484014
09478,LK Lichtenfels,168.4,0.8,0.3,50.10915,11.120815
09479,LK Wunsiedel i.Fichtelgebirge,181.4,0.1,0.2,50.09149,12.041012
09561,SK Ansbach,94.1,9.2,11.8,49.289653,10.573355
09562,SK Erlangen,76.9,5.6,8.7,49.581177,10.985761
09563,SK Fürth,178.7,2.7,1.8,49.488147,10.973388
09564,SK Nürnberg,166,6.6,4.1,49.435679,11.086215
09565,SK Schwabach,106.2,4.9,5.2,49.33246,11.031057
09571,LK Ansbach,137.4,13.2,11.2,49.160088,10.430621
09572,LK Erlangen-Höchstadt,100.3,7.5,8.6,49.677346,10.848502
09573,LK Fürth,111.6,1.8,1.8,49.443756,10.857838
09574,LK Nürnberger Land,113.4,3.8,3.8,49.490782,11.373909
09575,LK Neustadt a.d.Aisch-Bad Windsheim,125.8,9.4,7.6,49.566294,10.472122
09576,LK Roth,113.1,4,4.5,49.198729,11.130104
09577,LK Weißenburg-Gunzenhausen,112.6,0.4,0.4,49.029091,10.903037
09661,SK Aschaffenburg,117.6,12.9,11.7,49.965224,9.1598653
09662,SK Schweinfurt,150,21.8,17.4,50.042317,10.223202
09663,SK Würzburg,94.9,0.8,0.9,49.780016,9.9449642
09671,LK Aschaffenburg,99.7,10.6,11.2,50.0068,9.2512234
09672,LK Bad Kissingen,103.9,3.7,3.8,50.221197,9.9643468
09673,LK Rhön-Grabfeld,147.4,1.1,0.7,50.369698,10.257982
09674,LK Haßberge,157,9.8,7.7,50.058476,10.610977
09675,LK Kitzingen,87.6,3.3,5.1,49.748753,10.260365
09676,LK Miltenberg,103,1.9,2.2,49.756799,9.2445054
09677,LK Main-Spessart,96.9,4.1,4.8,49.991344,9.6680921
09678,LK Schweinfurt,103.3,14.5,16.4,49.935132,10.346527
09679,LK Würzburg,72.3,0.7,1.1,49.618894,10.001447
09761,SK Augsburg,148.9,9.8,6.7,48.341627,10.892835
09762,SK Kaufbeuren,148.6,12.7,10.9,47.884084,10.617797
09763,SK Kempten,159.5,6.7,5.7,47.739602,10.30596
09764,SK Memmingen,159.1,6.2,3.9,47.987559,10.162409
09771,LK Aichach-Friedberg,99.6,7.6,8.7,48.426496,11.058273
09772,LK Augsburg,121.4,1,0.9,48.396895,10.685283
09773,LK Dillingen a.d.Donau,87.4,0.5,0.6,48.599273,10.535961
09774,LK Günzburg,132.7,10.9,8,48.35839,10.385559
09775,LK Neu-Ulm,114.8,1,0.9,48.302863,10.142761
09776,LK Lindau,101.3,4.8,5,47.607267,9.885544
09777,LK Ostallgäu,179.2,15.3,9.9,47.69976,10.63783
09778,LK Unterallgäu,166.9,2.1,1.5,48.043666,10.394069
09779,LK Donau-Ries,141.2,2.3,1.9,48.805268,10.72336
09780,LK Oberallgäu,121.5,4.4,4.6,47.514561,10.255646
10041,LK Stadtverband Saarbrücken,109.2,3.4,3.5,49.254221,6.9624581
10042,LK Merzig-Wadern,66.8,4.1,9.4,49.497743,6.6812872
10043,LK Neunkirchen,114.3,4.3,5.2,49.382253,7.1228489
10044,LK Saarlouis,90.1,8.4,10.8,49.357861,6.7777539000000004
10045,LK Saarpfalz-Kreis,76.6,6.6,8.8,49.250003,7.2453135
10046,LK Sankt Wendel,79.2,0.5,0.8,49.527195,7.105983
11001,SK Berlin Mitte,122.4,9.7,8.6,52.502759,13.399375
11002,SK Berlin Friedrichshain-Kreuzberg,93.2,14.7,16.9,52.502759,13.399375
11003,SK Berlin Pankow,80.4,5.7,7.4,52.502759,13.399375
11004,SK Berlin Charlottenburg-Wilmersdorf,100.8,5.3,5.6,52.502759,13.399375
11005,SK Berlin Spandau,129,9.7,9,52.502759,13.399375
11006,SK Berlin Steglitz-Zehlendorf,84.3,11.3,14.3,52.502759,13.399375
11007,SK Berlin Tempelhof-Schöneberg,111.4,7.6,7.3,52.502759,13.399375
11008,SK Berlin Neukölln,135.3,14.1,11.7,52.502759,13.399375
11009,SK Berlin Treptow-Köpenick,84.5,7,9.2,52.502759,13.399375
11010,SK Berlin Marzahn-Hellersdorf,113.7,7,7.1,52.502759,13.399375
11011,SK Berlin Lichtenberg,108.7,10,9.5,52.502759,13.399375
11012,SK Berlin Reinickendorf,118,8.7,7.7,52.502759,13.399375
12051,SK Brandenburg a.d.Havel,89,0.3,0.4,52.393582,12.513434
12052,SK Cottbus,142,0.4,0.2,51.773461,14.379693
12053,SK Frankfurt (Oder),109,1.1,1.3,52.326169,14.488103
12054,SK Potsdam,89,1.8,2.3,52.396134000000004,13.05742
12060,LK Barnim,85.4,2,2.6,52.82132,13.711743
12061,LK Dahme-Spreewald,91.4,6.1,6.7,52.044154,13.829476
12062,LK Elbe-Elster,187.7,0.1,0.1,51.613588,13.476273
12063,LK Havelland,112,1,0.8,52.616959,12.632832
12064,LK Märkisch-Oderland,93.6,2.7,2.9,52.606125,14.148876
12065,LK Oberhavel,112.2,1.3,1.1,52.903092,13.210681
12066,LK Oberspreewald-Lausitz,160,1.4,0.8,51.618423,13.959035
12067,LK Oder-Spree,133.1,0.3,0.3,52.246749,14.218978
12068,LK Ostprignitz-Ruppin,92.1,1.6,1.8,52.986298,12.642753
12069,LK Potsdam-Mittelmark,85.4,2.1,2.8,52.251067,12.708471
12070,LK Prignitz,97.3,1.7,1.6,53.104582,11.968515
12071,LK Spree-Neiße,145.1,1.2,1.5,51.622702,14.370469
12072,LK Teltow-Fläming,111.8,0.5,0.5,52.072272,13.287821
12073,LK Uckermark,81.2,0.9,1.5,53.204681,13.861258
13003,SK Rostock,62.8,1.4,2.4,54.15084,12.150236
13004,SK Schwerin,97.7,0.6,0.6,53.621983,11.419816
13071,LK Mecklenburgische Seenplatte,108.4,0.8,0.8,53.544128,13.002276
13072,LK Rostock,91.5,5.3,6,53.911856,12.22239
13073,LK Vorpommern-Rügen,61.2,5.3,9.6,54.247992000000004,12.898721
13074,LK Nordwestmecklenburg,101.9,0.6,0.6,53.820465,11.250093
13075,LK Vorpommern-Greifswald,124.2,18,15.8,53.769177,13.75855
13076,LK Ludwigslust-Parchim,141.6,1.6,1.4,53.450094,11.534177
14511,SK Chemnitz,201.3,30.4,16.3,50.83261,12.939141
14521,LK Erzgebirgskreis,245.1,18.4,8.1,50.609375,12.945301
14522,LK Mittelsachsen,197.2,31.5,18.2,50.956407,13.137541
14523,LK Vogtlandkreis,281.4,16.3,5.9,50.404913,12.338026
14524,LK Zwickau,230.6,13.7,6.7,50.72636,12.498494
14612,SK Dresden,108.6,12.6,12.3,51.100169,13.799476
14625,LK Bautzen,168.9,30.3,19.7,51.172049,14.3838
14626,LK Görlitz,160,21.4,15,51.13691,14.961263
14627,LK Meißen,150.7,4.3,3.1,51.136632,13.434262
14628,LK Sächsische Schweiz-Osterzgebirge,140.8,24.3,18.8,50.917266,13.871576
14713,SK Leipzig,94.6,4.5,6.3,51.333118,12.376875
14729,LK Leipzig,132.1,7.8,5.8,51.203509,12.439818
14730,LK Nordsachsen,177.8,12.8,7.8,51.472542,12.779554
15001,SK Dessau-Roßlau,113.4,12.3,12,51.813909,12.241279
15002,SK Halle,170.3,1.9,1,51.4803,11.974528
15003,SK Magdeburg,98.1,0.2,0.3,52.115977,11.648383
15081,LK Altmarkkreis Salzwedel,88.6,1.8,3,52.676729,11.229724
15082,LK Anhalt-Bitterfeld,92.7,15.8,19.2,51.647049,12.299255
15083,LK Börde,108.2,11.5,11.1,52.059045,11.284423
15084,LK Burgenlandkreis,228.6,36,16.4,51.134376,11.83389
15085,LK Harz,152.3,0,0,51.822351,10.95932
15086,LK Jerichower Land,120,3.8,3.2,52.287454,12.029403
15087,LK Mansfeld-Südharz,131.9,12.1,9.4,51.535322,11.354395
15088,LK Saalekreis,171.7,14.3,8.9,51.363372,11.798382
15089,LK Salzlandkreis,124.3,8.6,7.6,51.851445,11.641005
15090,LK Stendal,152,16.9,11.8,52.693177,11.845665
15091,LK Wittenberg,135,9.8,7.5,51.791391,12.791179
16051,SK Erfurt,132.3,5.1,4.4,50.982466,11.020683
16052,SK Gera,253.2,0.8,0.3,50.90074,12.093004
16053,SK Jena,105.5,4.6,5.7,50.92588,11.591162
16054,SK Suhl,192.2,14.1,7.9,50.608361,10.693465
16055,SK Weimar,96.9,8.2,9.1,50.977554,11.31781
16056,SK Eisenach,170.8,4.6,3,50.990569,10.296955
16061,LK Eichsfeld,167.6,5,3.2,51.38163,10.257459
16062,LK Nordhausen,96.9,8.1,10.1,51.501566,10.73279
16063,LK Wartburgkreis,289.9,6.9,2.6,50.892774,10.217819
16064,LK Unstrut-Hainich-Kreis,128,1,0.8,51.182695,10.555401
16065,LK Kyffhäuserkreis,171.6,0,0,51.323188,10.989641
16066,LK Schmalkalden-Meiningen,258.6,18.6,7.6,50.628856,10.407442
16067,LK Gotha,250.6,2.2,0.9,50.907203,10.696255
16068,LK Sömmerda,219.2,6.3,3,51.156333,11.156919
16069,LK Hildburghausen,183.2,1,0.8,50.431086,10.737739
16070,LK Ilm-Kreis,241.2,2.9,1.3,50.736692,10.968152
16071,LK Weimarer Land,171.6,5.2,3.7,51.032264,11.507425
16072,LK Sonneberg,186.1,7.7,5.8,50.413317,11.133108
16073,LK Saalfeld-Rudolstadt,186.4,4.1,2.5,50.638271,11.311129
16074,LK Saale-Holzland-Kreis,192.7,0.1,0,50.905491,11.735917
16075,LK Saale-Orla-Kreis,329.4,8.6,2.8,50.582527,11.713913
16076,LK Greiz,374.8,11.3,2.9,50.753331,12.084158
16077,LK Altenburger Land,204.7,7.8,4,50.961288,12.410718
